東京都:
  世田谷区:
    三宿1丁目12番6号:
      latlng: 35.64816391,139.67650585
      name:
      - 世田谷区立三宿小学校
    三宿2丁目26番11号:
      latlng: 35.65262999,139.67365317
      name:
      - 世田谷区立多聞小学校
    三軒茶屋1丁目4番1号:
      latlng: 35.63960372,139.67377302
      name:
      - 世田谷区立中里小学校
    三軒茶屋2丁目42番1号:
      latlng: 35.64042561,139.66316558
      name:
      - 世田谷区立三軒茶屋小学校
    上北沢4丁目22番29号:
      latlng: 35.66968780,139.62128198
      name:
      - 世田谷区立上北沢小学校
    上用賀5丁目15番1号:
      latlng: 35.63043161,139.62682739
      name:
      - 世田谷区立用賀中学校
    上用賀6丁目14番1号:
      latlng: 35.63621413,139.62642439
      name:
      - 世田谷区立用賀小学校
    上祖師谷7丁目10番1号:
      latlng: 35.66037129,139.59334001
      name:
      - 世田谷区立上祖師谷中学校
    下馬1丁目42番12号:
      latlng: 35.64030102,139.68056132
      name:
      - 世田谷区立駒繋小学校
    下馬4丁目18番1号:
      latlng: 35.63744851,139.67812828
      name:
      - 世田谷区立駒留中学校
    世田谷2丁目4番15号:
      latlng: 35.64303595,139.64523084
      name:
      - 世田谷区立桜小学校
    中町2丁目29番1号:
      latlng: 35.61077583,139.64333497
      name:
      - 世田谷区立玉川小学校
    中町4丁目21番1号:
      latlng: 35.61676401,139.64349857
      name:
      - 世田谷区立玉川中学校
    中町4丁目23番1号:
      latlng: 35.61732506,139.64277641
      name:
      - 世田谷区立中町小学校
    代沢1丁目23番17号:
      latlng: 35.65700181,139.67740270
      name:
      - 世田谷区立富士中学校
    代沢2丁目42番9号:
      latlng: 35.65990970,139.67302243
      name:
      - 世田谷区立池之上小学校
    代沢5丁目1番10号:
      latlng: 35.65506567,139.66785636
      name:
      - 世田谷区立代沢小学校
    代田1丁目13番9号:
      latlng: 35.65192144,139.66264857
      name:
      - 世田谷区立花見堂小学校
    代田4丁目2番3号:
      latlng: 35.65847892,139.65847093
      name:
      - 世田谷区立代田小学校
    代田6丁目21番5号:
      latlng: 35.66540323,139.66153156
      name:
      - 世田谷区立守山小学校
    八幡山1丁目14番1号:
      latlng: 35.66186367,139.62188495
      name:
      - 世田谷区立八幡山小学校
    北沢4丁目32番20号:
      latlng: 35.66808655,139.67224999
      name:
      - 世田谷区立北沢小学校
    北沢5丁目12番3号:
      latlng: 35.66935294,139.66713650
      name:
      - 世田谷区立北沢中学校
    北烏山1丁目47番11号:
      latlng: 35.67726417,139.60566626
      name:
      - 世田谷区立武蔵丘小学校
    北烏山6丁目3番1号:
      latlng: 35.67336443,139.59981684
      name:
      - 世田谷区立烏山北小学校
    千歳台4丁目24番1号:
      latlng: 35.65899984,139.61346348
      name:
      - 世田谷区立千歳台小学校
    千歳台6丁目15番1号:
      latlng: 35.65844690,139.60619461
      name:
      - 世田谷区立千歳中学校
    千歳台6丁目7番1号:
      latlng: 35.65684434,139.60732236
      name:
      - 世田谷区立塚戸小学校
    南烏山4丁目26番1号:
      latlng: 35.67200351,139.60087236
      name:
      - 世田谷区立烏山中学校
    喜多見3丁目11番1号:
      latlng: 35.62614848,139.60188287
      name:
      - 世田谷区立喜多見小学校
    喜多見4丁目20番1号:
      latlng: 35.62555122,139.59406421
      name:
      - 世田谷区立喜多見中学校
    喜多見6丁目9番1号:
      latlng: 35.63174487,139.60542932
      name:
      - 世田谷区立砧小学校
    大原1丁目4番6号:
      latlng: 35.66680316,139.66452015
      name:
      - 世田谷区立東大原小学校
    太子堂1丁目3番43号:
      latlng: 35.64555869,139.67786972
      name:
      - 世田谷区立三宿中学校
    太子堂3丁目27番17号:
      latlng: 35.65084118,139.66882586
      name:
      - 世田谷区立太子堂中学校
    太子堂5丁目7番4号:
      latlng: 35.64649164,139.66687895
      name:
      - 世田谷区立太子堂小学校
    奥沢1丁目1番1号:
      latlng: 35.59855877,139.68057952
      name:
      - 世田谷区立東玉川小学校
    奥沢1丁目42番1号:
      latlng: 35.60276651,139.67945438
      name:
      - 世田谷区立奥沢中学校
    奥沢3丁目1番1号:
      latlng: 35.59980016,139.67475776
      name:
      - 世田谷区立奥沢小学校
    奥沢8丁目12番1号:
      latlng: 35.60326575,139.66005589
      name:
      - 世田谷区立九品仏小学校
    宮坂1丁目38番4号:
      latlng: 35.64982958,139.64478900
      name:
      - 世田谷区立世田谷小学校
    尾山台3丁目11番1号:
      latlng: 35.60459883,139.65425634
      name:
      - 世田谷区立尾山台小学校
    尾山台3丁目27番23号:
      latlng: 35.60594036,139.65578115
      name:
      - 世田谷区立尾山台中学校
    弦巻1丁目42番22号:
      latlng: 35.63728397,139.64916403
      name:
      - 世田谷区立弦巻中学校
    弦巻1丁目9番18号:
      latlng: 35.63968099,139.65255258
      name:
      - 世田谷区立弦巻小学校
    弦巻3丁目23番12号:
      latlng: 35.63884755,139.64446714
      name:
      - 世田谷区立松丘小学校
    成城1丁目10番1号:
      latlng: 35.63363057,139.60126284
      name:
      - 世田谷区立砧中学校
    成城3丁目3番1号:
      latlng: 35.63535524,139.59926562
      name:
      - 世田谷区立明正小学校
    成城9丁目6番1号:
      latlng: 35.65166134,139.59796772
      name:
      - 世田谷区立千歳小学校
    新町1丁目26番29号:
      latlng: 35.62655738,139.64812554
      name:
      - 世田谷区立深沢中学校
    新町1丁目4番24号:
      latlng: 35.62737125,139.65161411
      name:
      - 世田谷区立深沢小学校
    松原5丁目43番26号:
      latlng: 35.66433639,139.65062419
      name:
      - 世田谷区立松原小学校
    松原6丁目5番11号:
      latlng: 35.65913424,139.65241586
      name:
      - 世田谷区立梅丘中学校
    桜1丁目48番15号:
      latlng: 35.64568001,139.64237267
      name:
      - 世田谷区立桜木中学校
    桜上水1丁目23番3号:
      latlng: 35.65632566,139.63073997
      name:
      - 世田谷区立経堂小学校
    桜上水3丁目19番12号:
      latlng: 35.66156953,139.63155918
      name:
      - 世田谷区立緑丘中学校
    桜上水4丁目5番2号:
      latlng: 35.66648849,139.63460046
      name:
      - 世田谷区立松沢中学校
    桜丘1丁目19番17号:
      latlng: 35.64446595,139.63092923
      name:
      - 世田谷区立桜丘小学校
    桜丘2丁目1番39号:
      latlng: 35.64372156,139.62955438
      name:
      - 世田谷区立桜丘中学校
    桜丘5丁目19番1号:
      latlng: 35.64532388,139.62133282
      name:
      - 世田谷区立笹原小学校
    梅丘2丁目1番11号:
      latlng: 35.64864098,139.65066078
      name:
      - 世田谷区立城山小学校
    梅丘3丁目9番1号:
      latlng: 35.65135743,139.65524920
      name:
      - 世田谷区立山崎小学校
    池尻2丁目4番10号:
      latlng: 35.64600868,139.67969455
      name:
      - 世田谷区立池尻小学校
    深沢3丁目7番1号:
      latlng: 35.61803349,139.65803605
      name:
      - 世田谷区立東深沢小学校
    深沢4丁目18番28号:
      latlng: 35.61883056,139.65376696
      name:
      - 世田谷区立東深沢中学校
    瀬田2丁目15番1号:
      latlng: 35.61850827,139.63189976
      name:
      - 世田谷区立瀬田小学校
    瀬田2丁目17番1号:
      latlng: 35.61836940,139.63341348
      name:
      - 世田谷区立瀬田中学校
    玉堤2丁目11番1号:
      latlng: 35.59991339,139.64742402
      name:
      - 世田谷区立玉堤小学校
    玉川4丁目6番1号:
      latlng: 35.61643636,139.62625336
      name:
      - 世田谷区立二子玉川小学校
    玉川田園調布2丁目17番15:
      latlng: 35.60278279,139.66689709
      name:
      - 世田谷区立八幡小学校
    用賀1丁目5番1号:
      latlng: 35.62452978,139.64230114
      name:
      - 世田谷区立桜町小学校
    用賀4丁目27番4号:
      latlng: 35.62911798,139.63123253
      name:
      - 世田谷区立京西小学校
    砧6丁目7番1号:
      latlng: 35.64353781,139.61333631
      name:
      - 世田谷区立山野小学校
    祖師谷3丁目49番1号:
      latlng: 35.64590394,139.60478965
      name:
      - 世田谷区立祖師谷小学校
    等々力6丁目4番1号:
      latlng: 35.61092047,139.66120824
      name:
      - 世田谷区立八幡中学校
    等々力7丁目26番1号:
      latlng: 35.61649192,139.65366427
      name:
      - 世田谷区立等々力小学校
    粕谷2丁目22番1号:
      latlng: ''
      name:
      - 世田谷区立芦花小学校
    粕谷2丁目22番2号:
      latlng: ''
      name:
      - 世田谷区立芦花中学校
    給田1丁目2番1号:
      latlng: 35.66350702,139.59285384
      name:
      - 世田谷区立烏山小学校
    給田4丁目24番1号:
      latlng: 35.67110614,139.59235363
      name:
      - 世田谷区立給田小学校
    船橋4丁目20番1号:
      latlng: 35.65566983,139.61892150
      name:
      - 世田谷区立船橋中学校
    船橋4丁目41番1号:
      latlng: 35.65320616,139.61689397
      name:
      - 世田谷区立船橋小学校
    船橋4丁目9番1号:
      latlng: 35.65654204,139.62165181
      name:
      - 世田谷区立希望丘小学校
    船橋6丁目25番1号:
      latlng: 35.65925838,139.62097400
      name:
      - 世田谷区立希望丘中学校
    若林5丁目27番18号:
      latlng: 35.64951325,139.65715744
      name:
      - 世田谷区立若林中学校
    若林5丁目38番1号:
      latlng: 35.65072704,139.65905169
      name:
      - 世田谷区立若林小学校
    赤堤1丁目41番24号:
      latlng: 35.65533151,139.63755055
      name:
      - 世田谷区立赤堤小学校
    赤堤4丁目44番22号:
      latlng: 35.66546651,139.63928621
      name:
      - 世田谷区立松沢小学校
    野沢1丁目4番3号:
      latlng: 35.63480697,139.67038735
      name:
      - 世田谷区立旭小学校
    野沢3丁目34番16号:
      latlng: 35.63256839,139.67282887
      name:
      - 世田谷区立中丸小学校
    鎌田3丁目13番20号:
      latlng: 35.62105227,139.61356552
      name:
      - 世田谷区立砧南中学校
    鎌田4丁目3番1号:
      latlng: 35.62259369,139.61267938
      name:
      - 世田谷区立砧南小学校
    駒沢2丁目10番6号:
      latlng: 35.63296801,139.65785791
      name:
      - 世田谷区立駒沢小学校
    駒沢2丁目39番25号:
      latlng: 35.63656757,139.65576633
      name:
      - 世田谷区立駒沢中学校
  千代田区:
    一ツ橋2丁目6番14号:
      latlng: 35.69426068,139.75679441
      name:
      - 神田一橋中学校
    一番町12番地2:
      latlng: 35.68703880,139.73949333
      name:
      - いきいきプラザ一番町
    三番町16番地:
      latlng: 35.69052178,139.74071253
      name:
      - 九段小学校
    九段南1丁目5番10号:
      latlng: 35.69516879,139.75210585
      name:
      - 九段生涯学習館
    六番町8番地:
      latlng: 35.68820798,139.73401042
      name:
      - 番町小学校
    内神田2丁目1番8号:
      latlng: 35.68918931,139.76756333
      name:
      - スポーツセンター
    外神田3丁目4番7号:
      latlng: 35.70130475,139.76985449
      name:
      - 昌平童夢館(昌平小学校)
    外神田6丁目11番14号:
      latlng: 35.70421003,139.77068211
      name:
      - アーツ千代田3331
    富士見1丁目10番14号:
      latlng: 35.69661571,139.74646178
      name:
      - 九段中等教育学校
    富士見1丁目10番3号:
      latlng: 35.69731562,139.74611178
      name:
      - 富士見みらい館
    岩本町2丁目15番3号:
      latlng: ''
      name:
      - 岩本町ほほえみプラザ
    平河町2丁目5番1号:
      latlng: 35.68050200,139.73886447
      name:
      - 麹町中学校
    猿楽町1丁目1番1号:
      latlng: 35.69739099,139.76020514
      name:
      - お茶の水小学校
    神田司町2丁目16番地:
      latlng: 35.69348887,139.76817431
      name:
      - 神田さくら館(千代田小学校)
    神田和泉町1番地:
      latlng: 35.69939131,139.77842098
      name:
      - ちよだパークサイドプラザ(和泉小学校)
    神田神保町2丁目20番地:
      latlng: 35.69711036,139.75654708
      name:
      - 高齢者センター
    鍛冶町2丁目4番2号:
      latlng: 35.69169753,139.77309357
      name:
      - 旧今川中学校
    麹町2丁目8番地:
      latlng: 35.68552230,139.73964893
      name:
      - 麹町小学校
  台東区:
    三ノ輪1丁目23番9号:
      latlng: 35.72855522,139.79214307
      name:
      - 台東区立東泉小学校
    三ノ輪2丁目27番11号:
      latlng: ''
      name:
      - 特別養護老人ホーム三ノ輪
    上野1丁目16番20号:
      latlng: 35.70706531,139.77103474
      name:
      - 台東区立黒門小学校
    上野公園18番20号:
      latlng: 35.71962270,139.77909763
      name:
      - 台東区立忍岡中学校
    上野桜木1丁目14番55号:
      latlng: 35.72121136,139.77472570
      name:
      - 台東区立上野中学校
    下谷1丁目12番8号:
      latlng: 35.72009774,139.78236127
      name:
      - 台東区立旧坂本小学校
    下谷3丁目1番29号:
      latlng: 35.72354200,139.78588588
      name:
      - 台東区立柏葉中学校
    今戸2丁目1番8号:
      latlng: 35.72075740,139.80707946
      name:
      - 台東区立桜橋中学校
    入谷2丁目23番8号:
      latlng: 35.72083942,139.78807740
      name:
      - 台東区立大正小学校
    北上野2丁目15番1号:
      latlng: 35.71745912,139.78420572
      name:
      - 台東区立駒形中学校
    千束1丁目9番9号:
      latlng: 35.71862020,139.79024399
      name:
      - 台東区立金竜小学校
    台東1丁目25番5号:
      latlng: 35.70184658,139.77787641
      name:
      - 台東一丁目区民館
    台東4丁目13番16号:
      latlng: 35.70697938,139.77743724
      name:
      - 台東区立御徒町台東中学校
    台東4丁目21番5号:
      latlng: 35.71867302,139.79446304
      name:
      - 台東区立平成小学校
    寿1丁目10番9号:
      latlng: 35.70714071,139.78923380
      name:
      - 台東区立旧済美小学校
    小島2丁目9番10号:
      latlng: 35.70602687,139.78419535
      name:
      - 台東区立旧小島小学校
    日本堤2丁目25番4:
      latlng: 35.72804398,139.79724515
      name:
      - 台東区立旧田中小学校
    東上野2丁目25番14号:
      latlng: 35.70945701,139.78163411
      name:
      - 老人福祉センター
    東上野3丁目24番6号:
      latlng: 35.71129289,139.77961187
      name:
      - 東上野区民館
    東上野4丁目7番9号:
      latlng: ''
      name:
      - 台東区立旧下谷小学校
    東上野6丁目16番8号:
      latlng: 35.71360666,139.78329210
      name:
      - 台東区立上野小学校
    東浅草2丁目27番19:
      latlng: 35.72443078,139.79820674
      name:
      - 台東区立東浅草小学校
    松が谷1丁目13番16号:
      latlng: 35.71228183,139.78646970
      name:
      - 台東区立松葉小学校
    松が谷4丁目4番3号:
      latlng: 35.71750638,139.78762485
      name:
      - ケアハウス松が谷
    根岸3丁目9番8号:
      latlng: 35.72367797,139.77896702
      name:
      - 台東区立根岸小学校
    根岸4丁目16番22号:
      latlng: 35.72580297,139.78518315
      name:
      - 台東区立金曽木小学校
    池之端2丁目1番22号:
      latlng: 35.71403670,139.76697355
      name:
      - 台東区立忍岡小学校
    浅草4丁目24番11号:
      latlng: 35.71936740,139.79405192
      name:
      - 台東区立千束小学校
    浅草4丁目26番2号:
      latlng: 35.71909241,139.79337144
      name:
      - 特別養護老人ホーム浅草
    浅草4丁目48番9号:
      latlng: 35.71875378,139.79862389
      name:
      - 台東区立富士小学校
    浅草橋2丁目26番8号:
      latlng: ''
      name:
      - 台東区立台東育英小学校
    浅草橋5丁目1番35号:
      latlng: 35.69953029,139.78252087
      name:
      - 台東区立旧柳北小学校
    清川1丁目14番21号:
      latlng: 35.72498990,139.80395442
      name:
      - 台東区立石浜小学校
    竜泉2丁目10番6号:
      latlng: 35.72562228,139.78964084
      name:
      - 台東区立旧竜泉中学校
    花川戸1丁目14番15号:
      latlng: 35.71346805,139.79913235
      name:
      - 台東区立浅草小学校
    蔵前1丁目3番4号:
      latlng: 35.69980817,139.78990394
      name:
      - 台東区立浅草中学校
    蔵前2丁目11番7号:
      latlng: 35.70368555,139.79295611
      name:
      - 特別養護老人ホーム蔵前
    蔵前4丁目19番11号:
      latlng: 35.70441043,139.78935071
      name:
      - 台東区立蔵前小学校
    谷中2丁目17番20号:
      latlng: 35.72405234,139.76432625
      name:
      - 特別養護老人ホーム谷中
    谷中2丁目9番16号:
      latlng: 35.72369964,139.76517899
      name:
      - 台東区立谷中小学校
    雷門1丁目5番14号:
      latlng: 35.71010713,139.79300268
      name:
      - 台東区立田原小学校
  品川区:
    上大崎1-19-19:
      latlng: 35.63280000,139.72381896
      name:
      - 品川区立第三日野小学校
    上大崎1-3-12:
      latlng: 35.63459698,139.72207462
      name:
      - 品川区立上大崎シルバーセンター
    中延1-11-15:
      latlng: 35.61256593,139.70950137
      name:
      - 品川区立中延小学校
    中延6-2-18:
      latlng: 35.60344752,139.71167644
      name:
      - 品川区立源氏前小学校
    二葉1-3-40:
      latlng: 35.60682523,139.72567796
      name:
      - 品川区立大間窪小学校
    二葉4-4-10:
      latlng: 35.60292542,139.71574556
      name:
      - 品川区立上神明小学校
    八潮5-11-2:
      latlng: 35.60139084,139.75252895
      name:
      - 品川区立小中一貫校八潮学園
    北品川1-29-12:
      latlng: 35.62053248,139.74177065
      name:
      - 品川区立北品川シルバーセンター
    北品川2-7-21:
      latlng: 35.61881053,139.74394832
      name:
      - 品川区立北品川児童センター
    北品川3-9-30:
      latlng: 35.61811044,139.73797383
      name:
      - 品川区立小中一貫校品川学園
    北品川5-2-6:
      latlng: 35.62313187,139.73177137
      name:
      - 品川区立御殿山小学校
    北品川5-8-15:
      latlng: 35.62013781,139.73243255
      name:
      - 品川区立小関児童センター
    南品川2-8-21:
      latlng: 35.61332782,139.74274585
      name:
      - 品川区立城南小学校
    南品川4-5-28:
      latlng: 35.61348323,139.73868783
      name:
      - 品川区立南品川児童センター
    南品川6-8-8:
      latlng: 35.61148339,139.73649363
      name:
      - 品川区立浅間台小学校
    南大井2-3-14:
      latlng: 35.59309684,139.73773038
      name:
      - 品川区立鈴ヶ森中学校
    南大井3-7-13:
      latlng: ''
      name:
      - 品川区立南大井児童センター
      - 品川区立南大井シルバーセンター
    南大井4-16-2:
      latlng: 35.59447712,139.73524159
      name:
      - 品川区立鈴ヶ森小学校
    南大井4-3-27:
      latlng: 35.59827945,139.73620248
      name:
      - 品川区立浜川小学校
    南大井5-13-19:
      latlng: 35.59545472,139.73393331
      name:
      - 品川区立水神児童センター
    大井2-25-1:
      latlng: 35.60465063,139.72963328
      name:
      - 品川区立一本橋児童センター
    大井3-7-19:
      latlng: 35.60278697,139.72992499
      name:
      - 品川区立山中小学校
    大井4-11-34:
      latlng: 35.60235661,139.73369139
      name:
      - 品川区立大井倉田児童センター
    大井5-1-37:
      latlng: 35.60000662,139.72616149
      name:
      - 品川区立小中一貫校伊藤学園
    大井5-19-14:
      latlng: 35.59821807,139.72898913
      name:
      - 品川区立滝王子児童センター
    大井6-1-32:
      latlng: 35.59872087,139.73118617
      name:
      - 品川区立大井第一小学校
    大崎2-7-13:
      latlng: 35.61669081,139.72610540
      name:
      - 品川区立大崎シルバーセンター
    大崎3-12-22:
      latlng: 35.61925437,139.72471655
      name:
      - 品川区立芳水小学校
    小山1-4-1:
      latlng: 35.62209269,139.71260361
      name:
      - 品川区立中原児童センター
    小山2-4-6:
      latlng: 35.62156768,139.70857064
      name:
      - 品川区立後地小学校
    小山2-9-19:
      latlng: 35.62062891,139.70919839
      name:
      - 品川区立後地児童センター
      - 品川区立後地シルバーセンター
    小山5-10-6:
      latlng: 35.61600158,139.70324905
      name:
      - 品川区立小山小学校
    小山5-17-8:
      latlng: 35.61489615,139.70262414
      name:
      - 品川区立小山シルバーセンター
    小山5-20-19:
      latlng: 35.61640705,139.70000210
      name:
      - 品川区立荏原第六中学校
    小山台1-18-24:
      latlng: 35.62279246,139.70347104
      name:
      - 品川区立小山台小学校
    平塚2-10-20:
      latlng: 35.61691274,139.71396197
      name:
      - 品川区立平塚シルバーセンター
    平塚2-19-20:
      latlng: 35.61511570,139.71307877
      name:
      - 品川区立京陽小学校
    平塚2-2-3:
      latlng: 35.61879037,139.71740885
      name:
      - 品川区立平塚児童センター
    平塚3-16-26:
      latlng: 35.61532396,139.71010124
      name:
      - 品川区立小中一貫校荏原平塚学園
    戸越1-15-23:
      latlng: 35.61570460,139.71758670
      name:
      - 品川区立戸越台中学校
    戸越4-5-10:
      latlng: 35.61187726,139.71832841
      name:
      - 品川区立宮前小学校
    戸越6-16-1:
      latlng: 35.60732771,139.71533713
      name:
      - 品川区立大原児童センター
    戸越6-17-3:
      latlng: 35.60732217,139.71599819
      name:
      - 品川区立大原小学校
    旗の台1-11-17:
      latlng: 35.60718312,139.70274658
      name:
      - 品川区立清水台小学校
    旗の台1-6-1:
      latlng: 35.61011893,139.70361308
      name:
      - 品川区立第二延山小学校
    旗の台4-13-1:
      latlng: 35.60258363,139.70466876
      name:
      - 品川区立旗の台シルバーセンター
    旗の台4-7-11:
      latlng: 35.60335298,139.70419378
      name:
      - 品川区立旗台小学校
    旗の台5-11-13:
      latlng: 35.60315575,139.70210230
      name:
      - 品川区立荏原第五中学校
    旗の台5-19-5:
      latlng: 35.60375567,139.70045244
      name:
      - 品川区立旗の台児童センター
    旗の台5-2-2:
      latlng: 35.60500276,139.70041907
      name:
      - 品川区立心身障害者福祉会館
    東中延2-5-10:
      latlng: 35.60780541,139.71380669
      name:
      - 品川区立東中延児童センター
    東五反田2-11-1:
      latlng: 35.62450384,139.72816884
      name:
      - 品川区立日野学園
    東五反田2-11-2:
      latlng: 35.62417888,139.72826329
      name:
      - 品川区立総合体育館
    東五反田2-15-6:
      latlng: 35.62193196,139.72944106
      name:
      - 品川区立五反田シルバーセンター
    東五反田5-24-1:
      latlng: 35.62801165,139.72338858
      name:
      - 品川区立東五反田児童センター
    東品川1-34-9:
      latlng: 35.61912723,139.74603980
      name:
      - 品川区立東品川児童センター
    東品川1-8-30:
      latlng: 35.62138242,139.74318439
      name:
      - 品川区立台場小学校
    東品川3-30-15:
      latlng: 35.61261978,139.74897039
      name:
      - 品川区立東海中学校
    東品川3-32-10:
      latlng: ''
      name:
      - 品川区立東品川シルバーセンター
    東品川3-4-5:
      latlng: 35.61557766,139.74598994
      name:
      - 品川区立城南第二小学校
    東大井1-22-16:
      latlng: 35.60348178,139.74137134
      name:
      - 品川区立東大井児童センター
    東大井2-10-14:
      latlng: 35.60171531,139.74066869
      name:
      - 品川区立鮫浜小学校
    東大井3-18-34:
      latlng: 35.60019873,139.73794395
      name:
      - 品川区立浜川中学校
    東大井4-15-9:
      latlng: 35.60446772,139.74019083
      name:
      - 品川区立立会小学校
    東大井5-18-1:
      latlng: 35.60617568,139.73583554
      name:
      - 品川区立総合区民会館(きゅりあん)
    東大井6-11-11:
      latlng: 35.60188179,139.73650509
      name:
      - 品川区立関ヶ原シルバーセンター
    荏原1-24-30:
      latlng: 35.61944577,139.71286755
      name:
      - 品川区立荏原第一中学校
    西中延1-2-8:
      latlng: 35.61439906,139.70996517
      name:
      - 平塚橋シルバーセンター
    西中延1-6-16:
      latlng: 35.61241871,139.70849591
      name:
      - 品川区立中延児童センター
    西中延2-17-5:
      latlng: 35.60901075,139.70808215
      name:
      - 品川区立延山小学校
    西中延3-8-5:
      latlng: 35.60733316,139.70814608
      name:
      - 品川区立西中延児童センター
    西五反田3-9-10:
      latlng: 35.62653393,139.71690587
      name:
      - 品川区立西五反田シルバーセンター
    西五反田4-29-9:
      latlng: 35.62580338,139.71234241
      name:
      - 品川区立第四日野小学校
    西五反田6-5-32:
      latlng: 35.62216774,139.71609775
      name:
      - 品川区立第一日野小学校
    西品川2-6-13:
      latlng: 35.61400500,139.72621659
      name:
      - 品川区立三ツ木児童センター
    西品川3-10-6:
      latlng: 35.61583526,139.72301124
      name:
      - 品川区立大崎中学校
    西品川3-16-28:
      latlng: 35.61503267,139.72663597
      name:
      - 品川区立三木小学校
    西大井5-5-14:
      latlng: 35.59855372,139.71526242
      name:
      - 品川区立冨士見台中学校
    西大井5-6-8:
      latlng: 35.59875374,139.71727891
      name:
      - 品川区立伊藤小学校
    西大井6-1-8:
      latlng: 35.60137559,139.71427074
      name:
      - 品川区立冨士見台児童センター
    西大井6-13-1:
      latlng: 35.60074517,139.71754548
      name:
      - 品川区立伊藤児童センター
    豊町1-18-15:
      latlng: 35.61153294,139.72270583
      name:
      - 品川区立ゆたか児童センター
    豊町2-1-20:
      latlng: 35.61076076,139.72097266
      name:
      - 品川区立戸越小学校
    豊町3-2-15:
      latlng: 35.60833600,139.71960618
      name:
      - 品川区立ゆたかシルバーセンター
    豊町3-5-31:
      latlng: 35.60896096,139.72109215
      name:
      - 品川区立豊葉の杜中学校
    豊町4-17-21:
      latlng: 35.60647789,139.72091446
      name:
      - 品川区立南ゆたか児童センター
    豊町4-24-15:
      latlng: 35.60602799,139.72266989
      name:
      - 品川区立杜松小学校
  渋谷区:
    上原1丁目46番4号:
      latlng: 35.66933399,139.68686811
      name:
      - 渋谷区立富谷小学校
    上原3丁目13番20号:
      latlng: 35.66625358,139.67884948
      name:
      - 渋谷区立上原小学校
    上原3丁目41番2号:
      latlng: 35.66696736,139.67753568
      name:
      - 渋谷区立上原中学校
    代々木2丁目35番1号:
      latlng: 35.68457697,139.69797210
      name:
      - 渋谷区立代々木小学校
    代々木3丁目35番1号:
      latlng: 35.68256041,139.69312816
      name:
      - 渋谷区あやめの苑・代々木
    代々木3丁目47番1号:
      latlng: 35.68130782,139.69472252
      name:
      - 渋谷区立山谷小学校
    初台1丁目32番12号:
      latlng: 35.67917446,139.68417908
      name:
      - 渋谷区立幡代小学校
    千駄ヶ谷2丁目4番1号:
      latlng: 35.67534215,139.70762716
      name:
      - 渋谷区立千駄谷小学校
    千駄ヶ谷5丁目9番1号:
      latlng: 35.68248018,139.70578538
      name:
      - 渋谷区立鳩森小学校
    宇田川町5番1号:
      latlng: 35.66337381,139.69741187
      name:
      - 渋谷区立神南小学校
    幡ヶ谷2丁目21番9号:
      latlng: 35.67644671,139.67249688
      name:
      - 渋谷区ケアステーション・笹幡本町
    幡ヶ谷3丁目39番1号:
      latlng: 35.67941580,139.67200515
      name:
      - 渋谷区生活実習所つばさ
    幡ヶ谷3丁目49番1号:
      latlng: 35.68046848,139.67285503
      name:
      - 渋谷区立中幡小学校
    広尾1丁目9番17号:
      latlng: 35.64903968,139.71625245
      name:
      - 渋谷区立臨川小学校
    恵比寿4丁目21番10号:
      latlng: 35.64439852,139.71452780
      name:
      - 渋谷区立加計塚小学校
    恵比寿西1丁目23番1号:
      latlng: 35.64739525,139.70634508
      name:
      - 渋谷区立長谷戸小学校
    本町3丁目46番1号:
      latlng: 35.68768175,139.68200116
      name:
      - 渋谷区立本町東小学校
    本町4丁目39番1号:
      latlng: 35.68504867,139.67998756
      name:
      - 渋谷区立本町小学校
    本町4丁目3番1号:
      latlng: 35.68604583,139.68192624
      name:
      - 渋谷区立本町中学校
    東1丁目13番25号:
      latlng: ''
      name:
      - 渋谷区立広尾中学校
    東1丁目7番10号:
      latlng: 35.65566384,139.71034717
      name:
      - 渋谷区立常磐松小学校
    東3丁目14番13号:
      latlng: 35.65084215,139.70974187
      name:
      - 渋谷区ひがし健康プラザ
    東3丁目3番3号:
      latlng: 35.65180319,139.71205828
      name:
      - 渋谷区立広尾小学校
    松濤1丁目20番4号:
      latlng: 35.66119334,139.69089585
      name:
      - 渋谷区立松濤中学校
    渋谷1丁目18番21号:
      latlng: ''
      name:
      - 渋谷区ケアコミニュティ・美竹の丘
    猿楽町12番35号:
      latlng: 35.65087809,139.70167866
      name:
      - 渋谷区立猿楽小学校
    神南1丁目8番6号:
      latlng: 35.66432656,139.70073654
      name:
      - 渋谷区高齢者ケアセンター
    神宮前1丁目24番6号:
      latlng: 35.67333677,139.70530522
      name:
      - 渋谷区立原宿外苑中学校
    神宮前3丁12番8号:
      latlng: 35.66989841,139.71113817
      name:
      - 渋谷区ケアコミュニティ・原宿の丘
    神宮前3丁目12番8号:
      latlng: 35.66989841,139.71113817
      name:
      - 渋谷区ケアコミュニティ・原宿の丘
    神宮前4丁目20番12号:
      latlng: 35.66791800,139.70817185
      name:
      - 渋谷区立神宮前小学校
    笹塚2丁目8番1号:
      latlng: 35.67606890,139.66893055
      name:
      - 渋谷区立笹塚小学校
    笹塚3丁目10番1号:
      latlng: 35.67754373,139.66868329
      name:
      - 渋谷区立笹塚中学校
    西原1丁目40番10号:
      latlng: 35.67530818,139.68189610
      name:
      - 渋谷区総合ケアコミュニティ・せせらぎ
    西原1丁目40番18号:
      latlng: 35.67556368,139.68096561
      name:
      - 渋谷区スポーツセンター
    西原1丁目46番1号:
      latlng: 35.67396115,139.68320992
      name:
      - 渋谷区立代々木中学校
    西原2丁目19番1号:
      latlng: 35.67407493,139.67951857
      name:
      - 渋谷区けやきの苑・西原
    西原2丁目22番1号:
      latlng: 35.67400825,139.67862143
      name:
      - 渋谷区立西原小学校
    鶯谷町9番1号:
      latlng: 35.65321673,139.70293124
      name:
      - 渋谷区立鉢山中学校
  港区:
    三田1-4-52:
      latlng: 35.65323145,139.74252212
      name:
      - 港区立赤羽小学校
    三田3-4-22:
      latlng: 35.64611005,139.74303900
      name:
      - 旧南海小学校
    三田4-11-38:
      latlng: 35.64317137,139.73803400
      name:
      - 港区立御田小学校
    三田4-13-13:
      latlng: 35.64522954,139.74085034
      name:
      - 三田中学校
    三田5-7-7:
      latlng: 35.64650159,139.73966151
      name:
      - 豊岡いきいきプラザ
    元麻布3-8-15:
      latlng: 35.65725574,139.73112300
      name:
      - 港区立南山小学校
    元麻布3-9-11:
      latlng: 35.65595031,139.73055921
      name:
      - 麻布福祉会館
    六本木5-16-45:
      latlng: 35.66063602,139.73494754
      name:
      - 麻布区民センター
    六本木6-8-16:
      latlng: 35.66082482,139.73225610
      name:
      - 港区立六本木中学校
    北青山1-1-9:
      latlng: 35.67419259,139.72215369
      name:
      - 港区立青山中学校
    南青山2-16-5:
      latlng: 35.66919034,139.72124287
      name:
      - 青山いきいきプラザ
    南青山2-21-2:
      latlng: 35.66987356,139.71906248
      name:
      - 港区立青山小学校
    南青山4-10-1:
      latlng: 35.66646556,139.71731277
      name:
      - 青南いきいきプラザ
    南青山4-21-15:
      latlng: 35.66350475,139.71614355
      name:
      - 港区立青南小学校
    南麻布1-5-26:
      latlng: 35.65143425,139.73510063
      name:
      - 南麻布いきいきプラザ
    南麻布1-8-11:
      latlng: 35.65070101,139.73547840
      name:
      - 港区立東町小学校
    南麻布3-5-15:
      latlng: 35.65098419,139.73046218
      name:
      - 本村いきいきプラザ
    南麻布3-9-33:
      latlng: 35.64981765,139.72995949
      name:
      - 港区立本村小学校
    台場1-1-5:
      latlng: 35.63364569,139.77712254
      name:
      - 港区立港陽小学校・中学校
    台場1-5-1:
      latlng: 35.62999333,139.77708100
      name:
      - 台場区民センター
    新橋3-16-3:
      latlng: 35.66562215,139.75711487
      name:
      - 港区立生涯学習センター
    新橋6-19-2:
      latlng: 35.66120588,139.75377922
      name:
      - 福祉プラザさくら川(旧桜川小学校)
    新橋6-4-2:
      latlng: 35.66235576,139.75400971
      name:
      - 新橋福祉会館
    東麻布2-1-1:
      latlng: 35.65814759,139.74255529
      name:
      - 旧飯倉小学校
    東麻布2-16-11:
      latlng: 35.65690324,139.74088881
      name:
      - 飯倉いきいきプラザ
    浜松町1-13-1:
      latlng: 35.65884788,139.75688737
      name:
      - エコプラザ(旧神明小学校)
    港南4-2-1:
      latlng: 35.62935385,139.74782537
      name:
      - 港南いきいきプラザ
    港南4-3-3:
      latlng: 35.63119534,139.74911131
      name:
      - 港区立港南中学校
    港南4-3-6:
      latlng: ''
      name:
      - 港区立港南小学校
    白金3-10-12:
      latlng: 35.64488490,139.73107345
      name:
      - 白金いきいきプラザ
    白金3-18-2:
      latlng: 35.64439047,139.72920975
      name:
      - 港区立三光小学校
    白金4-1-12:
      latlng: 35.64364884,139.72707387
      name:
      - 港区立朝日中学校
    白金6-9-5:
      latlng: 35.64362934,139.72426579
      name:
      - 港区立神応小学校
    白金台1-4-26:
      latlng: 35.63681076,139.72856007
      name:
      - 港区立白金小学校
    白金台4-8-5:
      latlng: 35.63771613,139.72496593
      name:
      - 白金台いきいきプラザ
    芝1-8-23:
      latlng: 35.65164308,139.75555717
      name:
      - 障害健康福祉センター
    芝2-21-3:
      latlng: 35.65130131,139.75017986
      name:
      - 港区立芝小学校
    芝4-1-17:
      latlng: 35.64877381,139.74978276
      name:
      - 三田いきいきプラザ
    芝5-18-2:
      latlng: 35.64801275,139.74849123
      name:
      - 港勤労福祉会館
    芝公園2-7-3:
      latlng: 35.65418156,139.75056584
      name:
      - 芝公園福祉会館
    芝公園3-2-4:
      latlng: 35.66098357,139.74951848
      name:
      - 港区立御成門小学校
    芝浦3-1-19:
      latlng: 35.64554640,139.75004396
      name:
      - 港区スポーツセンター
    芝浦3-1-47:
      latlng: 35.64566302,139.74903293
      name:
      - 男女平等参画センター
    芝浦4-13-1:
      latlng: 35.64049698,139.74861653
      name:
      - 芝浦港南区民センター
    芝浦4-8-18:
      latlng: 35.63815832,139.74631127
      name:
      - 港区立芝浦小学校
    虎ノ門1-21-10:
      latlng: 35.66783836,139.74873217
      name:
      - 虎ノ門いきいきプラザ(とらトピア)
    西新橋2-10-10:
      latlng: ''
      name:
      - 旧桜小学校
    西新橋2-10-18:
      latlng: ''
      name:
      - 桜福祉会館
    西新橋3-25-30:
      latlng: 35.66163075,139.75036838
      name:
      - 港区立御成門中学校
    西麻布2-13-3:
      latlng: 35.66077461,139.72278473
      name:
      - 西麻布福祉会館
    西麻布3-11-16:
      latlng: 35.65646957,139.72490692
      name:
      - 港区立笄小学校
    西麻布4-14-8:
      latlng: 35.65689720,139.72039343
      name:
      - 港区立高陵中学校
    赤坂4-1-26:
      latlng: 35.67652595,139.73477748
      name:
      - 旧赤坂小学校
    赤坂4-18-13:
      latlng: 35.67474830,139.73163338
      name:
      - 赤坂区民センター
    赤坂6-4-8:
      latlng: 35.67035718,139.73493882
      name:
      - 赤坂いきいきプラザ
    赤坂6-6-14:
      latlng: 35.66996563,139.73763027
      name:
      - サン・サン赤坂
    赤坂8-13-29:
      latlng: 35.66930721,139.73103088
      name:
      - 港区立赤坂小学校
    赤坂9-2-3:
      latlng: 35.66816568,139.73149755
      name:
      - 港区立赤坂中学校
    高輪1-16-25:
      latlng: 35.64194919,139.73410383
      name:
      - 港区立高松中学校
      - 高輪区民センター
    高輪2-8-24:
      latlng: 35.63642480,139.73408458
      name:
      - 港区立高輪台小学校
    高輪3-18-15:
      latlng: 35.63320022,139.73569288
      name:
      - 高輪いきいきプラザ
    麻布台1-5-15:
      latlng: 35.66194152,139.73855273
      name:
      - 港区立麻布小学校
  目黒区:
    上目黒3丁目37番27号:
      latlng: 35.64412308,139.69200192
      name:
      - 目黒区立鳥森小学校
    下目黒3丁目23番18号:
      latlng: 35.63105547,139.70748713
      name:
      - 目黒区立第三中学校
    下目黒6丁目11番35号:
      latlng: 35.62690025,139.69984346
      name:
      - 目黒区立不動小学校
    下目黒6丁目18番2号:
      latlng: 35.62861110,139.69665479
      name:
      - 目黒区立第四中学校
    中央町1丁目20番26号:
      latlng: 35.62776104,139.69022201
      name:
      - 目黒区立鷹番小学校
    中央町2丁目32番5号:
      latlng: 35.63151057,139.68877480
      name:
      - スマイルプラザ中央町
    中町1丁目5番4号:
      latlng: 35.63239402,139.69829898
      name:
      - 目黒区立油面小学校
    中町2丁目37番38号:
      latlng: 35.63467698,139.69364653
      name:
      - 目黒区立目黒中央中学校
    中目黒3丁目13番32号:
      latlng: 35.64019314,139.69917090
      name:
      - 目黒区立中目黒小学校
    中目黒3丁目6番26号:
      latlng: ''
      name:
      - めぐろ学校サポートセンター
    中目黒5丁目7番35号:
      latlng: 35.63601032,139.70086533
      name:
      - 特別養護老人ホーム中目黒
    五本木1丁目12番13号:
      latlng: 35.63873477,139.69042444
      name:
      - 目黒区立上目黒小学校
    五本木2丁目24番3号:
      latlng: 35.63441576,139.68778312
      name:
      - 目黒区立五本木小学校
    八雲1丁目1番8号:
      latlng: ''
      name:
      - 心身障害者センターあいアイ館
    八雲2丁目5番1号:
      latlng: 35.61806166,139.67125443
      name:
      - 目黒区立八雲小学校
    八雲3丁目13番21号:
      latlng: 35.61536461,139.66687987
      name:
      - 目黒区立宮前小学校
    八雲5丁目2番1号:
      latlng: 35.62431921,139.66867667
      name:
      - 目黒区立第十中学校
    原町2丁目18番12号:
      latlng: 35.61575137,139.69049182
      name:
      - 目黒区立原町小学校
    大橋2丁目11番1号:
      latlng: 35.65466619,139.68663256
      name:
      - 目黒区立第一中学校
    大橋2丁目19番1号:
      latlng: 35.65504105,139.68252178
      name:
      - 特別養護老人ホーム駒場苑
    平町2丁目3番1号:
      latlng: 35.61548175,139.68300356
      name:
      - 目黒区立大岡山小学校
    東が丘1丁目20番1号:
      latlng: 35.62715777,139.66802664
      name:
      - 目黒区立東根小学校
    東が丘1丁目6番4号:
      latlng: 35.62635514,139.67051257
      name:
      - 特別養護老人ホーム東が丘
    東山1丁目24番31号:
      latlng: 35.64647555,139.69022699
      name:
      - 目黒区立東山中学校
    東山2丁目24番25号:
      latlng: 35.64691983,139.68575790
      name:
      - 目黒区立東山小学校
    東山3丁目24番6号:
      latlng: 35.64735033,139.68543569
      name:
      - 特別養護老人ホーム東山
    洗足1丁目29番26号:
      latlng: 35.61350731,139.69454989
      name:
      - 目黒区立第九中学校
    目黒1丁目15番28号:
      latlng: 35.63759365,139.70916737
      name:
      - 目黒区立田道小学校
    目黒2丁目7番9号:
      latlng: 35.63420237,139.70915357
      name:
      - 目黒区立下目黒小学校
    目黒本町4丁目15番3号:
      latlng: 35.62251177,139.69456904
      name:
      - 目黒区立月光原小学校
    目黒本町4丁目2番1号:
      latlng: 35.62282293,139.69829927
      name:
      - 特別養護老人ホーム清徳苑
    目黒本町6丁目7番15号:
      latlng: 35.61871504,139.69578294
      name:
      - 目黒区立向原小学校
    碑文谷1丁目18番2号:
      latlng: 35.61961479,139.69058890
      name:
      - 目黒区立碑小学校
    碑文谷1丁目1番33号:
      latlng: 35.62292276,139.69176370
      name:
      - 目黒区立第七中学校
    碑文谷4丁目19番25号:
      latlng: 35.61968402,139.68249512
      name:
      - 目黒区立第八中学校
    碑文谷6丁目9番11号:
      latlng: 35.62654987,139.68208383
      name:
      - 目黒区立碑文谷公園
    緑が丘1丁目1番1号:
      latlng: ''
      name:
      - 目黒区立中根小学校
    緑が丘1丁目8番1号:
      latlng: 35.60946846,139.67902356
      name:
      - 目黒区立第十一中学校
    緑が丘2丁目13番1号:
      latlng: 35.61030710,139.67347954
      name:
      - 目黒区立緑ヶ丘小学校
    青葉台3丁目21番6号:
      latlng: 35.64960579,139.69200173
      name:
      - 特別養護老人ホーム青葉台さくら苑
    青葉台3丁目3番26号:
      latlng: 35.65167222,139.69215720
      name:
      - 目黒区立菅刈小学校
    駒場3丁目11番13号:
      latlng: 35.65950719,139.68160504
      name:
      - 目黒区立駒場小学校
